name,country,lat_deg,lon_deg
London,United Kingdom,51.5074,-0.1278
Paris,France,48.8566,2.3522
New York,United States,40.7128,-74.0060
Tokyo,Japan,35.6762,139.6503
Sydney,Australia,-33.8688,151.2093
Dubai,United Arab Emirates,25.2048,55.2708
Singapore,Singapore,1.3521,103.8198
Toronto,Canada,43.6532,-79.3832
San Francisco,United States,37.7749,-122.4194
Mumbai,India,19.0760,72.8777
